[{"Name":"197","Address":"16 Volante Crescent , MERMAID WATERS, QLD, 4218","latitude":-28.0418194,"longitude":153.4180706},{"Name":"247","Address":"12 Dalma , NORMAN PARK, QLD, 4170","latitude":-27.4853118,"longitude":153.0748585},{"Name":"290","Address":"186A Grove Road , GROVEDALE, VIC, 3216","latitude":-38.1931854,"longitude":144.3371744246},{"Name":"310","Address":"106A Woronora Road , ENGADINE, NSW, 2233","latitude":-34.0555518,"longitude":151.0035127},{"Name":"401","Address":"4\/276-280 Williamstown Road , YARRAVILLE, VIC, 3013","latitude":-37.81603115,"longitude":144.8826298333},{"Name":"485","Address":"9 Astonbrook Close , CARINDALE, QLD, 4152","latitude":-27.5162913,"longitude":153.1190776},{"Name":"530","Address":"88 Bellevue Street , CAMMERAY, NSW, 2062","latitude":-33.8216247,"longitude":151.2120772},{"Name":"546","Address":"12 Mount Huon Circuit , GLEN ALPINE, NSW, 2560","latitude":-34.0791584,"longitude":150.7874258},{"Name":"566","Address":"12 Bonalbo Street , KINGSGROVE, NSW, 2208","latitude":-33.9384076,"longitude":151.1049293},{"Name":"598","Address":"78 Foxglove Street , MOUNT GRAVATT EAST, QLD, 4122","latitude":-27.5291384,"longitude":153.090193},{"Name":"607","Address":"7F\/94-96 Alison Road , RANDWICK, NSW, 2031","latitude":null,"longitude":null},{"Name":"618","Address":"40 Homestead Lane , KELLYS PLAINS, NSW, 2350","latitude":null,"longitude":null},{"Name":"641","Address":"130 Hoff Street , MOUNT GRAVATT EAST, QLD, 4122","latitude":-27.5329115,"longitude":153.0822379},{"Name":"642","Address":"30 Beavis Court , GUMERACHA, SA, 5233","latitude":-34.8188811,"longitude":138.890544},{"Name":"647","Address":"8a Vaughan Avenue , PENNANT HILLS, NSW, 2120","latitude":-33.733556,"longitude":151.065282},{"Name":"677","Address":"3 Lindsay Street , MCKINNON, VIC, 3204","latitude":-37.9139272,"longitude":145.0447918},{"Name":"761","Address":"12 McComb Street , SUNBURY, VIC, 3429","latitude":-37.5817367,"longitude":144.6995607},{"Name":"780","Address":"34B Botting Street , ALBERT PARK, SA, 5014","latitude":-34.882759,"longitude":138.5216456},{"Name":"824","Address":"6\/14 Sinclair Street , ELSTERNWICK, VIC, 3185","latitude":-37.8826918,"longitude":144.9999078},{"Name":"838","Address":"3 Toorak Court , WURTULLA, QLD, 4575","latitude":-26.750405,"longitude":153.130226},{"Name":"902","Address":"32 Leichhardt Street , RUSE, NSW, 2560","latitude":-34.0655042,"longitude":150.8410814},{"Name":"914","Address":"12 Fox Place , BEAUMONT HILLS, NSW, 2155","latitude":-33.7011501,"longitude":150.9410405},{"Name":"915","Address":"1 Howgate Court , ELTHAM, VIC, 3095","latitude":-37.7219313,"longitude":145.1584672},{"Name":"935","Address":"68 Elliott Avenue , EAST RYDE, NSW, 2113","latitude":-33.812063,"longitude":151.1359},{"Name":"976","Address":"61\/2-10 Tyler Street , CAMPBELLTOWN, NSW, 2560","latitude":null,"longitude":null},{"Name":"987","Address":"17 Barridale Drive , KINGSLEY, WA, 6026","latitude":-31.8109959,"longitude":115.797139},{"Name":"992","Address":"33 Gardiner Street , MINTO, NSW, 2566","latitude":-34.0299838,"longitude":150.8555077},{"Name":"998","Address":"17a Woodland Avenue , WOONONA, NSW, 2517","latitude":-34.3460934,"longitude":150.9023822},{"Name":"5462","Address":"19A Prudence Close , WHITEBRIDGE, NSW, 2290","latitude":-32.9837959,"longitude":151.6993596},{"Name":"5465","Address":"4 Zed Court , SURREY DOWNS, SA, 5126","latitude":-34.8026974,"longitude":138.7124222},{"Name":"5474","Address":"14B Turner Road , BEROWRA HEIGHTS, NSW, 2082","latitude":-33.6119795,"longitude":151.1380644},{"Name":"5487","Address":"10 Champagne St , PETRIE, QLD, 4502","latitude":-27.2640916,"longitude":152.9755235},{"Name":"5489","Address":"2\/22 Paskin Street , KINGSWOOD, NSW, 2747","latitude":-33.7629182,"longitude":150.7225404},{"Name":"500279","Address":"90 Wyuna Ave , FRESHWATER, NSW, 2096","latitude":-33.7735645,"longitude":151.2824633},{"Name":"500285","Address":"25 Prioneer Drive , EDGEWATER, WA, 6027","latitude":null,"longitude":null},{"Name":"500314","Address":"5 Green Lane , UNDERDALE, SA, 5032","latitude":-34.9157603,"longitude":138.5457303},{"Name":"500354","Address":"469 The Strand , DIANELLA, WA, 6059","latitude":-31.8899992,"longitude":115.8712645},{"Name":"500358","Address":"104 Rupertswood Road , ROOTY HILL, NSW, 2766","latitude":-33.7718907,"longitude":150.8315801},{"Name":"500361","Address":"22a Byron Avenue , CLOVELLY PARK, SA, 5042","latitude":-35.0035127,"longitude":138.572373},{"Name":"500364","Address":"18 Toby Crescent , PANANIA, NSW, 2213","latitude":-33.9444781,"longitude":150.9965665},{"Name":"500367","Address":"6 albert square , PADDINGTON, NSW, 2021","latitude":-33.8851554,"longitude":151.2290569},{"Name":"500399","Address":"5 Seer Place , WADALBA, NSW, 2259","latitude":-33.265459,"longitude":151.4568369},{"Name":"500413","Address":"137 Iola Avenue , WOLLONGONG, NSW, 2500","latitude":-34.4593437,"longitude":150.8230227},{"Name":"500419","Address":"6\/58 Derby Street , KINGSWOOD, NSW, 2747","latitude":-33.7608272,"longitude":150.7117418},{"Name":"500423","Address":"1A Stimson Street , SMITHFIELD, NSW, 2164","latitude":-33.8585349,"longitude":150.9427886},{"Name":"500429","Address":"12\/12-16 Bottlewood Court , BURLEIGH WATERS, QLD, 4220","latitude":-28.0957014,"longitude":153.425296},{"Name":"500432","Address":"56\/79-87 Boyce Road , MAROUBRA, NSW, 2035","latitude":null,"longitude":null},{"Name":"500444","Address":"69 Delavan Street , WISHART, QLD, 4122","latitude":-27.5619406,"longitude":153.0960508},{"Name":"500446","Address":"7\/10 McKye Street , WAVERTON, NSW, 2060","latitude":-33.8365395,"longitude":151.1974313},{"Name":"500553","Address":"121 Olive Hill Drive , COBBITTY, NSW, 2570","latitude":-33.993823,"longitude":150.7237397},{"Name":"500572","Address":"182 Baines Street , KANGAROO POINT, QLD, 4169","latitude":-27.4814906,"longitude":153.0403596},{"Name":"500594","Address":"35 Ashkanasy Crescent , EVATT, ACT, 2617","latitude":-35.2107676,"longitude":149.0692303},{"Name":"500609","Address":"13 Brassica Street , MARSDEN PARK, NSW, 2765","latitude":-33.6971036,"longitude":150.8230205075},{"Name":"500639","Address":"4 Brissenden Ave , COLLAROY, NSW, 2097","latitude":-33.7352026,"longitude":151.3033234},{"Name":"500645","Address":"30 Schulten Street , MOOREBANK, NSW, 2170","latitude":-33.9371299,"longitude":150.9574661},{"Name":"500656","Address":"1\/135 Duncan Street , MAROUBRA, NSW, 2035","latitude":-33.9445207,"longitude":151.2506944},{"Name":"500715","Address":"16 Providence Drive , BELLA VISTA, NSW, 2153","latitude":-33.7488425,"longitude":150.9582169},{"Name":"500726","Address":"10 Scarborough Rise , JORDAN SPRINGS, NSW, 2747","latitude":-33.7219586,"longitude":150.7301149},{"Name":"500733","Address":"417\/21-37 Waitara Avenue , WAITARA, NSW, 2077","latitude":null,"longitude":null},{"Name":"500734","Address":"106 Lady Davidson CCT , FORESTVILLE, NSW, 2087","latitude":-33.7509269,"longitude":151.2144783},{"Name":"500738","Address":"UNIT 153 18-34 Waverley Street, BONDI JUNCTION, NSW, 2022","latitude":null,"longitude":null},{"Name":"500739","Address":"40 Elisabeth Avenue , SPRINGVALE SOUTH, VIC, 3172","latitude":-37.9671501,"longitude":145.1493451},{"Name":"500746","Address":"49 Glenheath Avenue , KELLYVILLE RIDGE, NSW, 2155","latitude":-33.6994945,"longitude":150.9206954},{"Name":"500749","Address":"49 Pepperberry Pde , MARSDEN PARK, NSW, 2765","latitude":null,"longitude":null},{"Name":"500751","Address":"407 Grand Promenade , DIANELLA, WA, 6059","latitude":-31.8900105,"longitude":115.863634},{"Name":"500754","Address":"Unit 30802, 2C Figtree Drive , SYDNEY OLYMPIC PARK, NSW, 2127","latitude":null,"longitude":null},{"Name":"500757","Address":"Unit 7 19 Bligh Street, WOLLONGONG, NSW, 2500","latitude":null,"longitude":null},{"Name":"500758","Address":"75 McKellar Blvd , BLUE HAVEN, NSW, 2262","latitude":-33.2112011,"longitude":151.4960676},{"Name":"500776","Address":"32 Crestreef Drive , ACACIA GARDENS, NSW, 2763","latitude":-33.7315157,"longitude":150.9094768},{"Name":"500782","Address":"58B Cressy Road , RYDE, NSW, 2112","latitude":-33.81594,"longitude":151.119963},{"Name":"500788","Address":"110\/148a Albany Street , POINT FREDERICK, NSW, 2250","latitude":null,"longitude":null},{"Name":"E000001","Address":"31 Ruskin Rowe , AVALON BEACH, NSW, 2107","latitude":-33.6376147,"longitude":151.318902},{"Name":"E000002","Address":"9 Wandeen Road  , CLAREVILLE, NSW, 2107","latitude":-33.6369235,"longitude":151.30933},{"Name":"E000005","Address":"78 Avian Cres , LANE COVE NORTH, NSW, 2066","latitude":-33.8015115,"longitude":151.1492347},{"Name":"E000006","Address":"17 bellara Avenue , NORTH NARRABEEN, NSW, 2101","latitude":-33.7022122,"longitude":151.2885393},{"Name":"E000010","Address":"110 \/ 4 Stromboli Strait , WENTWORTH POINT, NSW, 2127","latitude":-33.8299741,"longitude":151.0733793},{"Name":"E000025","Address":"Unit 8\/112 Alison Rd , RANDWICK, NSW, 2031","latitude":null,"longitude":null},{"Name":"E000039","Address":"8 Esplanade  , LINDISFARNE, TAS, 7015","latitude":-42.8476627,"longitude":147.3559087743},{"Name":"E000047","Address":"35\/56-62 Anzac Parade , KENSINGTON, NSW, 2033","latitude":null,"longitude":null},{"Name":"E000056","Address":"3C\/40 Cope Street , LANE COVE, NSW, 2066","latitude":-33.8186416,"longitude":151.1515961},{"Name":"E000057","Address":"PO Box 380 , RICHMOND, NSW, 2753","latitude":null,"longitude":null},{"Name":"E000059","Address":"6\/136 Old South Head Road , BELLEVUE HILL, NSW, 2023","latitude":null,"longitude":null},{"Name":"E000064","Address":"2 Village Drive , ULLADULLA, NSW, 2539","latitude":-35.3525486,"longitude":150.4608938},{"Name":"E000094","Address":"39a Bridge Street , LANE COVE, NSW, 2066","latitude":-33.8172865,"longitude":151.1591085},{"Name":"E000095","Address":"Level 5 14 Martin Place , SYDNEY, NSW, 2000","latitude":null,"longitude":null},{"Name":"E000107","Address":"19 Warwick Road , DUNDAS VALLEY, NSW, 2117","latitude":-33.785468,"longitude":151.055155},{"Name":"E000108","Address":"Unit 6\/41  Evans Street, WOLLONGONG, NSW, 2500","latitude":null,"longitude":null},{"Name":"E000148","Address":"19\/300 Jersey Road , PLUMPTON, NSW, 2761","latitude":-33.7442982,"longitude":150.8394712},{"Name":"E000159","Address":"15\/213 Wigram Road , GLEBE, NSW, 2037","latitude":-33.8778401,"longitude":151.184304},{"Name":"E000236","Address":"9 Quain St. , CRACE, ACT, 2911","latitude":-35.2022125,"longitude":149.1058622},{"Name":"E000251","Address":"Unit 4 \/ 14-16 Hopetoun Street 4 \/ 14-16 Hopetoun Street, INVERLOCH, VIC, 3996","latitude":null,"longitude":null},{"Name":"E000256","Address":"4 Bourmac Ave , NORTHBRIDGE, NSW, 2063","latitude":-33.8094894,"longitude":151.2284286},{"Name":"E000274","Address":"2\/54 Lamrock Ave  , BONDI BEACH, NSW, 2026","latitude":-33.8905654,"longitude":151.2694976},{"Name":"E000291","Address":"1405\/212 margaret street , BRISBANE CITY, QLD, 4000","latitude":-27.4711676,"longitude":153.0301581},{"Name":"E000833","Address":"144 Tadmore Road  , CRANEBROOK, NSW, 2749","latitude":-33.6888187,"longitude":150.7032914},{"Name":"E000852","Address":"39 Solveig Cresent  , KAREELA, NSW, 2232","latitude":null,"longitude":null},{"Name":"E000857","Address":"5 Bent Street , VILLAWOOD, NSW, 2163","latitude":-33.8882971,"longitude":150.9715},{"Name":"E000872","Address":"27 Sciarra crescent , ACACIA GARDENS, NSW, 2763","latitude":-33.7366023,"longitude":150.9136044},{"Name":"E000886","Address":"13 Water St , ANNANDALE, NSW, 2038","latitude":-33.8863354,"longitude":151.1734137446},{"Name":"E000894","Address":"67 Wyadra Ave  , NORTH MANLY, NSW, 2100","latitude":-33.7717884,"longitude":151.277607},{"Name":"E000900","Address":"5 Amesbury Avenue , SEFTON, NSW, 2162","latitude":-33.8829519,"longitude":151.008957},{"Name":"E000906","Address":"12 Old Glenhaven Road , GLENHAVEN, NSW, 2156","latitude":-33.6954876,"longitude":150.9983391},{"Name":"E000933","Address":"210\/747 Anzac Parade   , MAROUBRA, NSW, 2035","latitude":null,"longitude":null},{"Name":"E000942","Address":"6\/58 arthur st  , MARRICKVILLE, NSW, 2204","latitude":-33.9124563,"longitude":151.1508754},{"Name":"E000950","Address":"12A\/11 Wylde Street , POTTS POINT, NSW, 2011","latitude":-33.865354,"longitude":151.2246208},{"Name":"E000952","Address":"138\/32-40 Kerr Parade , AUBURN, NSW, 2144","latitude":null,"longitude":null},{"Name":"E000955","Address":"13 Zara Rd , WILLOUGHBY, NSW, 2068","latitude":-33.8037548,"longitude":151.1936053},{"Name":"E000976","Address":"26 Clareville Close , WOODBINE, NSW, 2560","latitude":-34.0465675,"longitude":150.8213651},{"Name":"E000985","Address":"17 Belmore Bend , AUBIN GROVE, WA, 6164","latitude":-32.1711853,"longitude":115.8693695},{"Name":"E000987","Address":"42A Ellam St , ST JAMES, WA, 6102","latitude":-31.9971983,"longitude":115.9180175},{"Name":"E000990","Address":"11 Simpson parade , ALBION PARK, NSW, 2527","latitude":-34.5810506,"longitude":150.7750178},{"Name":"E000998","Address":"472 North Rocks Road Carlingford , CARLINGFORD, NSW, 2118","latitude":-33.7653953,"longitude":151.0561668},{"Name":"E001006","Address":"21\/15 Bidjigal Rd , ARNCLIFFE, NSW, 2205","latitude":-33.9327572,"longitude":151.1471801},{"Name":"E001007","Address":"5\/252 new south head road  , DOUBLE BAY, NSW, 2028","latitude":null,"longitude":null},{"Name":"E001017","Address":"1a Lorraine Avenue , PADSTOW HEIGHTS, NSW, 2211","latitude":-33.9677566,"longitude":151.0414321},{"Name":"E001037","Address":"33 Pye Road , QUAKERS HILL, NSW, 2763","latitude":-33.7312966,"longitude":150.9062573635},{"Name":"E001045","Address":"3\/2 Kingsland Rd , BERALA, NSW, 2141","latitude":-33.8752239,"longitude":151.0297749},{"Name":"E001054","Address":"8\/83 Howard Avenue , DEE WHY, NSW, 2099","latitude":-33.7538466,"longitude":151.2964099},{"Name":"E001062","Address":"U903 180 Livingstone Rd , MARRICKVILLE, NSW, 2204","latitude":null,"longitude":null},{"Name":"E001074","Address":"47 Bradman Street  , MERRYLANDS, NSW, 2160","latitude":-33.8429182,"longitude":151.002754},{"Name":"E001083","Address":"64 Harp Street , BELMORE, NSW, 2192","latitude":-33.9266706,"longitude":151.0950305},{"Name":"E001105","Address":"18 Admiral St , THE PONDS, NSW, 2769","latitude":-33.714902,"longitude":150.8995742},{"Name":"E001120","Address":"39 Montague Street , GREYSTANES, NSW, 2145","latitude":-33.8251444,"longitude":150.9498019},{"Name":"E001128","Address":"136 OLD HUME HIGHWAY , YERRINBOOL, NSW, 2575","latitude":-34.3318557,"longitude":150.560815},{"Name":"E001137","Address":"11 Clarity View , SOUTHERN RIVER, WA, 6110","latitude":-32.1041578,"longitude":115.9606261},{"Name":"E001151","Address":"9 Beale Crescent , PEAKHURST, NSW, 2210","latitude":-33.9656215,"longitude":151.0594757},{"Name":"E001154","Address":"1107\/7 Keats Avenue , ROCKDALE, NSW, 2216","latitude":-33.9539205,"longitude":151.1367292},{"Name":"E001194","Address":"Unit 203 33 Bridge Street , ERSKINEVILLE, NSW, 2043","latitude":null,"longitude":null},{"Name":"E001196","Address":"163 Pacific Hwy Apt 5, ROSEVILLE, NSW, 2069","latitude":null,"longitude":null},{"Name":"E001207","Address":"6110 42-44 Pemberton St , BOTANY, NSW, 2019","latitude":null,"longitude":null},{"Name":"E001232","Address":"1\/1 Waitangi Street , BLACKWALL, NSW, 2256","latitude":-33.5073391,"longitude":151.3296713},{"Name":"E001242","Address":"3 Lomond Ct , WATTLE GROVE, NSW, 2173","latitude":-33.9484287,"longitude":150.9387038},{"Name":"E001262","Address":"63 Malison street , WYOMING, NSW, 2250","latitude":-33.4033488,"longitude":151.3603078},{"Name":"E001264","Address":"Unit 4\/114 Majors Bay Road , CONCORD, NSW, 2137","latitude":null,"longitude":null},{"Name":"E001276","Address":"45\/1-5 Dunmore Street , WENTWORTHVILLE, NSW, 2145","latitude":-33.8080348,"longitude":150.9726827},{"Name":"E001298","Address":"8\/42-44 albert parade , ASHFIELD, NSW, 2131","latitude":null,"longitude":null},{"Name":"E001326","Address":"B408\/10 Ransley Street , PENRITH, NSW, 2750","latitude":null,"longitude":null},{"Name":"E001337","Address":"10 Kempe Pl , EDENS LANDING, QLD, 4207","latitude":-27.70808755,"longitude":153.1674407269},{"Name":"E001347","Address":"12 South Avenue , LEICHHARDT, NSW, 2040","latitude":-33.8847787,"longitude":151.1629593},{"Name":"E001359","Address":"37 Station Street , ARNCLIFFE, NSW, 2205","latitude":-33.9377189,"longitude":151.1417103},{"Name":"E001371","Address":"25 wedgewood drive , EDGEWATER, WA, 6027","latitude":-31.7717632,"longitude":115.7819762},{"Name":"E001383","Address":"20 Victoria Rd U 157, PARRAMATTA, NSW, 2150","latitude":null,"longitude":null},{"Name":"E001384","Address":"4 Marook St , CARLINGFORD, NSW, 2118","latitude":-33.7860788,"longitude":151.0642663},{"Name":"E001396","Address":"16 Mersin Drive , MINDARIE, WA, 6030","latitude":-31.6917082,"longitude":115.7132167},{"Name":"E001401","Address":"12 Burrum Crescent , NIRIMBA, QLD, 4551","latitude":-26.8206414,"longitude":153.0509644},{"Name":"E001402","Address":"4\/58 Dickenson Street , CARINA, QLD, 4152","latitude":-27.4902415,"longitude":153.0941492},{"Name":"E001404","Address":"3\/112 Railway Crescent , JANNALI, NSW, 2226","latitude":-34.0166285,"longitude":151.0648586},{"Name":"E001405","Address":"7021\/8 Central Park Avenue , CHIPPENDALE, NSW, 2008","latitude":null,"longitude":null},{"Name":"E001410","Address":"1 berellan street  , GREENWELL POINT, NSW, 2540","latitude":null,"longitude":null},{"Name":"E001416","Address":"3\/9 Glenwood Avenue  3, COOGEE, NSW, 2034","latitude":null,"longitude":null},{"Name":"E001419","Address":"5\/3a Reed Street , CREMORNE, NSW, 2090","latitude":-33.8351991,"longitude":151.2276471},{"Name":"E001420","Address":"21 Hemers Road , DURAL, NSW, 2158","latitude":-33.6932736,"longitude":151.0516757},{"Name":"E001426","Address":"25 Fraser Drive , RIVER HEADS, QLD, 4655","latitude":-25.4106042,"longitude":152.911607},{"Name":"E001427","Address":"35 Concord Circuit , ROBINA, QLD, 4226","latitude":-28.0627404,"longitude":153.393542},{"Name":"E001428","Address":"501\/30 Cliff  Street , MILSONS POINT, NSW, 2061","latitude":-33.8449219,"longitude":151.2104443},{"Name":"E001433","Address":"14 Windsor Dr, , UPPER KEDRON, QLD, 4055","latitude":-27.4220788,"longitude":152.9191953315},{"Name":"E001434","Address":"Unit 5 24 Farris Street, INNALOO, WA, 6018","latitude":null,"longitude":null},{"Name":"E001450","Address":"609\/108  Albert Street, BRISBANE, QLD, 4000","latitude":-27.464255,"longitude":153.0206017},{"Name":"E001458","Address":"35 winchcombe way , CRANBOURNE NORTH, VIC, 3977","latitude":-38.0876123,"longitude":145.3283395},{"Name":"E001468","Address":"PO Box 1418 100 BANK STREET, NORTH SYDNEY, NSW, 2060","latitude":null,"longitude":null},{"Name":"E001484","Address":"1\/129 Frances street  , LIDCOMBE, NSW, 2141","latitude":-33.8540571,"longitude":151.0493003},{"Name":"E001488","Address":"98 Bungan Head Road Granny Flat A, NEWPORT, NSW, 2106","latitude":null,"longitude":null},{"Name":"E001493","Address":"48 east street , BLAKEHURST, NSW, 2221","latitude":-33.9925772,"longitude":151.1112548},{"Name":"E001495","Address":"5 Wicklow place , KILLARNEY HEIGHTS, NSW, 2087","latitude":-33.7701705,"longitude":151.2124534},{"Name":"E001508","Address":"73 Heidelberg Street , MAMBOURIN, VIC, 3024","latitude":-37.890222,"longitude":144.5921833},{"Name":"E001529","Address":"54\/107 Macpherson Street , BRONTE, NSW, 2024","latitude":-33.9065636,"longitude":151.2658959},{"Name":"E001544","Address":"90 Trevenar Street , ASHBURY, NSW, 2193","latitude":-33.89865105,"longitude":151.1174659536},{"Name":"E001549","Address":"39 Pastureland St , KEMBLA GRANGE, NSW, 2526","latitude":-34.4772617,"longitude":150.7867127},{"Name":"E001550","Address":"1B Riverview Street Chiswick , CHISWICK, NSW, 2046","latitude":-33.8488916,"longitude":151.1396776},{"Name":"E001551","Address":"32 Branyan Street , BUNDABERG, QLD, 4670","latitude":-24.8757713,"longitude":152.3422265},{"Name":"E001552","Address":"38 Wetlands Boulevard , WILLIAMS LANDING, VIC, 3027","latitude":-37.8566143,"longitude":144.7381363066},{"Name":"E001554","Address":"Unit 1 15 Farrant Court , ALTONA MEADOWS, VIC, 3028","latitude":-37.8754854,"longitude":144.7850096},{"Name":"E001557","Address":"54 Emperor Avenue , BELDON, WA, 6027","latitude":-31.7772993,"longitude":115.7598497},{"Name":"E001559","Address":"1-3 Corona Court  , GLENEAGLE, QLD, 4285","latitude":-27.9488101,"longitude":152.9967427},{"Name":"E001562","Address":"4\/97 Glenhuntly Road , ELWOOD, VIC, 3184","latitude":null,"longitude":null},{"Name":"E001566","Address":"246 Doncaster Avenue , KENSINGTON, NSW, 2033","latitude":-33.9043932,"longitude":151.2266079},{"Name":"E001567","Address":"Unit 115 7C Olive Street , SEVEN HILLS, NSW, 2147","latitude":null,"longitude":null},{"Name":"E001570","Address":"7 Sheridan Crescent , STANWELL PARK, NSW, 2508","latitude":-34.2240583,"longitude":150.9880429},{"Name":"E001571","Address":"20 Berrima Avenue , MALVERN EAST, VIC, 3145","latitude":-37.8829333,"longitude":145.0648519},{"Name":"E001572","Address":"6 Injune Place , MUDGEERABA, QLD, 4213","latitude":-28.0778421,"longitude":153.3515615},{"Name":"E001585","Address":"8a Letizia Court , YANGEBUP, WA, 6164","latitude":-32.1257895,"longitude":115.8221547},{"Name":"E001586","Address":"82 Stature Avenue , CLYDE NORTH, VIC, 3978","latitude":-38.0927633,"longitude":145.3448685},{"Name":"E001589","Address":"4 Hibiscus Close , ELLEN GROVE, QLD, 4078","latitude":-27.611978,"longitude":152.9518636},{"Name":"E001595","Address":"21 Brookvale Drive , DELANEYS CREEK, QLD, 4514","latitude":-27.0142525,"longitude":152.7916847},{"Name":"E001596","Address":"153 Forest Ridge Drive , NARANGBA, QLD, 4504","latitude":-27.1830196,"longitude":152.9310574},{"Name":"E001611","Address":"21 Grazing Way , CLYDE, VIC, 3978","latitude":-38.103464,"longitude":145.3804864},{"Name":"E001616","Address":"19 Waterfern Way , RIPLEY, QLD, 4306","latitude":-27.6722168,"longitude":152.7915226},{"Name":"E001617","Address":"1\/18 Warnes Road , MITCHAM, VIC, 3132","latitude":-37.8143909,"longitude":145.211079},{"Name":"E001618","Address":"348 Gipps Road , KEIRAVILLE, NSW, 2500","latitude":-34.4140943,"longitude":150.8678044},{"Name":"E001623","Address":"182 Webster Road , STAFFORD, QLD, 4053","latitude":-27.4095669,"longitude":153.0167308},{"Name":"E001624","Address":"12 Elder Way , BELLEVUE, WA, 6056","latitude":-31.9044702,"longitude":116.0348253},{"Name":"E001627","Address":"17 Garthowen Ave Lane Cove , LANE COVE, NSW, 2066","latitude":-33.8165303,"longitude":151.1559636},{"Name":"E001628","Address":"3 francesco crescent , BELLA VISTA, NSW, 2153","latitude":-33.7516584,"longitude":150.9547395},{"Name":"E001630","Address":"20A Cammeray Road  , CAMMERAY, NSW, 2062","latitude":-33.8232667,"longitude":151.2178298},{"Name":"E001636","Address":"5 Geebung Lane , DENHAM COURT, NSW, 2565","latitude":-33.9746762,"longitude":150.8142284},{"Name":"E001638","Address":"Unit 604, 354 Church Street , PARRAMATTA, NSW, 2150","latitude":null,"longitude":null},{"Name":"E001646","Address":"70 Perisher Road , BEAUMONT HILLS, NSW, 2155","latitude":-33.6988781,"longitude":150.9393925},{"Name":"E001647","Address":"3 Thornton Street , KELLYVILLE RIDGE, NSW, 2155","latitude":-33.7146225,"longitude":150.9168487},{"Name":"E001648","Address":"23  Fisher court , SUNBURY, VIC, 3429","latitude":-37.5614631,"longitude":144.7286262},{"Name":"E001652","Address":"51 Amberley Street , GLEDSWOOD HILLS, NSW, 2557","latitude":-34.0158731,"longitude":150.7790905},{"Name":"E001658","Address":"25 Bundeena Blvd , ALKIMOS, WA, 6038","latitude":-31.6221837,"longitude":115.6965802},{"Name":"E001660","Address":"5 Flower Street , WOOLLOONGABBA, QLD, 4102","latitude":-27.492619,"longitude":153.04319},{"Name":"E001661","Address":"68 Hardwicke St , RIVERWOOD, NSW, 2210","latitude":-33.9563299,"longitude":151.0576002},{"Name":"E001666","Address":"5 Carver Place , DUNDAS VALLEY, NSW, 2117","latitude":-33.791227,"longitude":151.058864},{"Name":"E001670","Address":"64 Grays Road  , GAYTHORNE, QLD, 4051","latitude":-27.4203888,"longitude":152.98084},{"Name":"E001672","Address":"156 Glenrowan Boweya Road , GLENROWAN, VIC, 3675","latitude":-36.4251019,"longitude":146.1712053},{"Name":"E001676","Address":"20 Derwent street  , SOUTH RIPLEY, QLD, 4306","latitude":-27.6976242,"longitude":152.8189395},{"Name":"E001681","Address":"131 West Mount Cotton Rd , CORNUBIA, QLD, 4130","latitude":-27.6505225,"longitude":153.2126019},{"Name":"E001682","Address":"101 Alex Avenue Schofields, SCHOFIELDS, NSW, 2762","latitude":-33.6978209,"longitude":150.8874267},{"Name":"E001683","Address":"Unit16, 2-6 Tilford st , ZETLAND, NSW, 2017","latitude":null,"longitude":null},{"Name":"E001688","Address":"unit 213, 104-106 Caddies Boulevard , ROUSE HILL, NSW, 2155","latitude":null,"longitude":null},{"Name":"E001695","Address":"11\/108 Wattle Ave , CARRAMAR, NSW, 2163","latitude":-33.8841965,"longitude":150.9636545},{"Name":"E001700","Address":"15 Grazier Road , ROUSE HILL, NSW, 2155","latitude":-33.6917698,"longitude":150.9298805},{"Name":"E001702","Address":"242 Bayswater Road , BAYSWATER NORTH, VIC, 3153","latitude":-37.8233815,"longitude":145.2685598},{"Name":"E001704","Address":"Unit 415 \/ 2c Charles Street , CANTERBURY, NSW, 2193","latitude":null,"longitude":null},{"Name":"E001711","Address":"28 Bogalara Rd , OLD TOONGABBIE, NSW, 2146","latitude":-33.787089,"longitude":150.9700848},{"Name":"E001714","Address":"12 Park Street  , BANYO, QLD, 4014","latitude":-27.3789918,"longitude":153.0728766},{"Name":"E001723","Address":"416\/21 Provan Street , CAMPBELL, ACT, 2612","latitude":-35.2885457,"longitude":149.1440411},{"Name":"E001725","Address":"49 Athabaska Ave , SEVEN HILLS, NSW, 2147","latitude":-33.7882993,"longitude":150.9380531},{"Name":"E001731","Address":"11A Chipilly Ave  , ENGADINE, NSW, 2233","latitude":-34.0634582,"longitude":151.010936},{"Name":"E001752","Address":"9 Tarana Court , HILLBANK, SA, 5112","latitude":-34.7306211,"longitude":138.6894956},{"Name":"E001754","Address":"14 Encore Crescent , ASHMORE, QLD, 4214","latitude":-27.9887387,"longitude":153.3581277},{"Name":"E001757","Address":"U 10\/2-6 Belgrave Hallam Road , HALLAM, VIC, 3803","latitude":null,"longitude":null},{"Name":"E001761","Address":"118-124 Red Gum Road , NEW BEITH, QLD, 4124","latitude":-27.7527518,"longitude":152.9678551},{"Name":"E001767","Address":"U601 9-11 Arncliffe , WOLLI CREEK, NSW, 2205","latitude":null,"longitude":null},{"Name":"E001770","Address":"1009\/977 Ann Street , FORTITUDE VALLEY, QLD, 4006","latitude":-27.4517165,"longitude":153.0408796},{"Name":"E001779","Address":"58 Ballyshannon Road , KILLARNEY HEIGHTS, NSW, 2087","latitude":-33.7700542,"longitude":151.2092326},{"Name":"E001782","Address":"8 Rosella Ave , REGENCY DOWNS, QLD, 4341","latitude":-27.532186,"longitude":152.4368433},{"Name":"E001785","Address":"20\/135-137 Brighton Road , ELWOOD, VIC, 3184","latitude":null,"longitude":null},{"Name":"E001787","Address":"10 Myra Law Cres , MONCRIEFF, ACT, 2914","latitude":-35.1599054,"longitude":149.1160616},{"Name":"E001796","Address":"77 Park Road , NAREMBURN, NSW, 2065","latitude":-33.8138627,"longitude":151.1978797},{"Name":"E001805","Address":"91 Lamb Street , LILYFIELD, NSW, 2040","latitude":-33.8713922,"longitude":151.1665104},{"Name":"E001808","Address":"Unit 409, 43 Shoreline Drive , RHODES, NSW, 2138","latitude":null,"longitude":null},{"Name":"E001810","Address":"17 Argyll Crescent , EDGEWORTH, NSW, 2285","latitude":-32.9221468,"longitude":151.6098907},{"Name":"E001812","Address":"18 Caribou Close , ST CLAIR, NSW, 2759","latitude":-33.8042296,"longitude":150.7913476276},{"Name":"E001814","Address":"98 Silverwood Drive  , COOROIBAH, QLD, 4565","latitude":-26.3729187,"longitude":152.987909},{"Name":"E001820","Address":"121\/10 Murphy Court , EVERTON PARK, QLD, 4053","latitude":-27.4123101,"longitude":152.9903565},{"Name":"E001830","Address":"39A Louie St , PADSTOW, NSW, 2211","latitude":-33.9417367,"longitude":151.0251149},{"Name":"E001836","Address":"39 Adam Street , NARARA, NSW, 2250","latitude":-33.4073974,"longitude":151.3437367},{"Name":"E001843","Address":"210\/225 Pacific Highway , NORTH SYDNEY, NSW, 2060","latitude":null,"longitude":null},{"Name":"E001850","Address":"43 Barden Road , BARDEN RIDGE, NSW, 2234","latitude":-34.0251632,"longitude":151.0167132},{"Name":"E001852","Address":"8 Binning St , ERSKINEVILLE, NSW, 2043","latitude":-33.9013564,"longitude":151.1873021},{"Name":"E001859","Address":"20 Glenwill Drive  , EPSOM, VIC, 3551","latitude":-36.694743,"longitude":144.3205977},{"Name":"E001860","Address":"PO Box 5779 , WAGGA WAGGA BC, NSW, 2650","latitude":null,"longitude":null},{"Name":"E001864","Address":"19 Banjo Street  , ALICE RIVER, QLD, 4817","latitude":-19.3399318,"longitude":146.5942132},{"Name":"E001867","Address":"28 Tomanbil Terrace , ASHMORE, QLD, 4214","latitude":-27.9946109,"longitude":153.3807101},{"Name":"E001873","Address":"12 Renoir Street , CORINDA, QLD, 4075","latitude":-27.5449846,"longitude":152.9840247},{"Name":"E001875","Address":"Unit 406, 17 Richmond Avenue  Marion Building , WILLOUGHBY, NSW, 2068","latitude":null,"longitude":null},{"Name":"E001877","Address":"608\/9 Tully Road , EAST PERTH, WA, 6004","latitude":-31.9488356,"longitude":115.8779443},{"Name":"E001881","Address":"3\/93 Sproule Street , LAKEMBA, NSW, 2195","latitude":-33.9250129,"longitude":151.0759071},{"Name":"E001900","Address":"718 Londonderry Road , LONDONDERRY, NSW, 2753","latitude":-33.6550584,"longitude":150.733795},{"Name":"E001903","Address":"19 Waterfern Way , RIPLEY, QLD, 4306","latitude":-27.6722168,"longitude":152.7915226},{"Name":"E001904","Address":"68B Ventnor St , SCARBOROUGH, WA, 6019","latitude":-31.9041973,"longitude":115.7597104},{"Name":"E001906","Address":"46 Greenwich  , MARDI, NSW, 2259","latitude":-33.29456715,"longitude":151.4143482646},{"Name":"E001908","Address":"14 Beaconsfield Street , ST ARNAUD, VIC, 3478","latitude":-36.6181063,"longitude":143.2495288},{"Name":"E001916","Address":"15 Sandalwood Place , GARDEN SUBURB, NSW, 2289","latitude":-32.9473069,"longitude":151.6800436},{"Name":"E001918","Address":"5\/18 Cumming Crescent , QUAKERS HILL, NSW, 2763","latitude":-33.7298794,"longitude":150.8836846},{"Name":"E001919","Address":"29 Nowranie Street , SUMMER HILL, NSW, 2130","latitude":-33.89474665,"longitude":151.13840215},{"Name":"E001923","Address":"7\/8 Sunbeam St , CAMPSIE, NSW, 2194","latitude":-33.9219314,"longitude":151.1025902},{"Name":"E001924","Address":"50 Chirnside Drive , CHIRNSIDE PARK, VIC, 3116","latitude":-37.7515389,"longitude":145.3177377},{"Name":"E001926","Address":"48A Riverside Avenue , AVONDALE HEIGHTS, VIC, 3034","latitude":-37.7689862,"longitude":144.8599572},{"Name":"E001937","Address":"30 Kew Road , HOXTON PARK, NSW, 2171","latitude":-33.9329216,"longitude":150.8526109},{"Name":"E001941","Address":"2 Sukarna Court , DOREEN, VIC, 3754","latitude":-37.6113854,"longitude":145.1087335},{"Name":"E001944","Address":"2 Dashwood Court , KIRWAN, QLD, 4817","latitude":-19.2939929,"longitude":146.7190331},{"Name":"E001945","Address":"25B Barnes Ave , MAGILL, SA, 5072","latitude":-34.9172094,"longitude":138.6681759},{"Name":"E001946","Address":"11 Shamrock St , BRUNSWICK WEST, VIC, 3055","latitude":-37.7543919,"longitude":144.9537607},{"Name":"E001947","Address":"22 Blackberry Street , MICKLEHAM, VIC, 3064","latitude":-37.5478499,"longitude":144.893156025},{"Name":"E001950","Address":"19 Cliff Way  , CLAREMONT, WA, 6010","latitude":-31.9883874,"longitude":115.7728317},{"Name":"E001970","Address":"60 taworri crescent  , WERRIBEE, VIC, 3030","latitude":-37.9017212,"longitude":144.6112335},{"Name":"E001973","Address":"56 pindari avenue , MILL PARK, VIC, 3082","latitude":-37.659199,"longitude":145.054789},{"Name":"E001974","Address":"305\/181-185 St Kilda Rd , ST KILDA, VIC, 3182","latitude":null,"longitude":null},{"Name":"E001975","Address":"25 Aldridge Street , AUCHENFLOWER, QLD, 4066","latitude":-27.47328975,"longitude":152.996986738},{"Name":"E001980","Address":"2501 8 Eve Street, ERSKINEVILLE, NSW, 2043","latitude":-33.9049185,"longitude":151.1858268},{"Name":"E001982","Address":"4 Miller Street , UNLEY, SA, 5061","latitude":-34.9420833,"longitude":138.6020846},{"Name":"E001987","Address":"Unit 5 81-83 Thomas Street,  , PARRAMATTA, NSW, 2150","latitude":null,"longitude":null},{"Name":"E001992","Address":"10\/164 Manningham Rd , BULLEEN, VIC, 3105","latitude":-37.7702784,"longitude":145.0991107},{"Name":"E001996","Address":"19 Tamboon Road , CANN RIVER, VIC, 3890","latitude":-37.6153617,"longitude":149.146378},{"Name":"E002002","Address":"34 BALFOUR STREET , OBERON, NSW, 2787","latitude":-33.7042876,"longitude":149.8500474},{"Name":"E002003","Address":"2 Helena Place , ALBION PARK, NSW, 2527","latitude":-34.5894702,"longitude":150.7896615},{"Name":"E002004","Address":"2 Stroud street , CLEARVIEW, SA, 5085","latitude":-34.8547741,"longitude":138.6142993},{"Name":"E002014","Address":"2705 \/ 15 Manning Street , SOUTH BRISBANE, QLD, 4101","latitude":null,"longitude":null},{"Name":"E002020","Address":"Unit 9 110 Picnic Point Road , PICNIC POINT, NSW, 2213","latitude":null,"longitude":null},{"Name":"E002023","Address":"Unit 406, 15 Atchison Street , ST LEONARDS, NSW, 2065","latitude":null,"longitude":null},{"Name":"E002024","Address":"25A Tanga Road , EDMONDSON PARK, NSW, 2174","latitude":-33.9618265,"longitude":150.8589797},{"Name":"E002026","Address":"2\/21 Camira Street , MALVERN EAST, VIC, 3145","latitude":-37.8906533,"longitude":145.0874314},{"Name":"E002028","Address":"Unit 911, 893, Canning Highway , MOUNT PLEASANT, WA, 6153","latitude":null,"longitude":null},{"Name":"E002031","Address":"5 Valleyview cl  , BAHRS SCRUB, QLD, 4207","latitude":-27.7348391,"longitude":153.1571826},{"Name":"E002035","Address":"112 Victoria Road , BELLEVUE HILL, NSW, 2023","latitude":-33.8729007,"longitude":151.2484203},{"Name":"E002037","Address":"41 Little Bourke Street , WARANGA SHORES, VIC, 3612","latitude":-36.5970097,"longitude":145.1168708},{"Name":"E002040","Address":"130 James Cook Drive  , ENDEAVOUR HILLS, VIC, 3802","latitude":-37.9866562,"longitude":145.2516338},{"Name":"E002044","Address":"2 Wright Street , CROYDON, NSW, 2132","latitude":-33.8782305,"longitude":151.1170034},{"Name":"E002051","Address":"Unit 4 12-14 Hythe Street , MOUNT DRUITT, NSW, 2770","latitude":null,"longitude":null},{"Name":"E002052","Address":"12\/65-67 Elouera Road , CRONULLA, NSW, 2230","latitude":null,"longitude":null},{"Name":"E002056","Address":"4 Cosgrove Avenue , FLINDERS, NSW, 2529","latitude":-34.5869554,"longitude":150.8499254},{"Name":"E002060","Address":"73 Croydon Ave , CROYDON PARK, NSW, 2133","latitude":-33.8971024,"longitude":151.1109353},{"Name":"E002066","Address":"6016, 70 Southbank Boulevard  , SOUTHBANK, VIC, 3006","latitude":null,"longitude":null},{"Name":"E002072","Address":"17 Kanji Loop , ATWELL, WA, 6164","latitude":-32.1471138,"longitude":115.8701129762},{"Name":"E002085","Address":"51 Peronne Place , BROOKFIELD, QLD, 4069","latitude":-27.4900989,"longitude":152.9029295},{"Name":"E002087","Address":"7 Ravenwood Place , MOUNT KEIRA, NSW, 2500","latitude":-34.415371,"longitude":150.8630985},{"Name":"E002089","Address":"165 Stanmore road , STANMORE, NSW, 2048","latitude":-33.8977639,"longitude":151.1664689},{"Name":"E002090","Address":"5 Mersey Street , UPPER COOMERA, QLD, 4209","latitude":null,"longitude":null},{"Name":"E002096","Address":"217 The Cove Road , HALLETT COVE, SA, 5158","latitude":-35.067378,"longitude":138.5051169},{"Name":"E002099","Address":"54 Ella Ave , BARDEN RIDGE, NSW, 2234","latitude":-34.02656095,"longitude":151.0038442071},{"Name":"E002100","Address":"20 Morris Crescent  , BELLBIRD PARK, QLD, 4300","latitude":-27.6421724,"longitude":152.8833603},{"Name":"E002105","Address":"18 Chipperton Road , BERTRAM, WA, 6167","latitude":-32.2507438,"longitude":115.840635},{"Name":"E002116","Address":"9A, Pritchard road, , MACQUARIE FIELDS, NSW, 2564","latitude":-33.9936078,"longitude":150.8832091},{"Name":"E002122","Address":"50 summer circuit , LAKE CATHIE, NSW, 2445","latitude":-31.5642779,"longitude":152.8454981},{"Name":"E002124","Address":"1 Main St , NORTHCOTE, VIC, 3070","latitude":-37.7723625,"longitude":145.0158233},{"Name":"E002127","Address":"33 Kangaroo Street , RAYMOND TERRACE, NSW, 2324","latitude":-32.7572263,"longitude":151.7449578},{"Name":"E002129","Address":"34 Albicore Street Apartment 31, MERMAID WATERS, QLD, 4218","latitude":null,"longitude":null},{"Name":"E002134","Address":"9\/60 Gawler Cresent , BRACKEN RIDGE, QLD, 4017","latitude":null,"longitude":null},{"Name":"E002141","Address":"22 Waratah Drive , CRESTMEAD, QLD, 4132","latitude":-27.6817173,"longitude":153.0929899},{"Name":"E002152","Address":"25 Maurice Terrace , BAKEWELL, NT, 0832","latitude":-12.4986336,"longitude":130.9953741},{"Name":"E002154","Address":"Unit 21 52a Nelson street , ANNANDALE, NSW, 2038","latitude":null,"longitude":null},{"Name":"E002155","Address":"77 Main Rd  , MCLAREN VALE, SA, 5171","latitude":-35.2188543,"longitude":138.5441156},{"Name":"E002165","Address":"101\/27A North Rocks Road , NORTH ROCKS, NSW, 2151","latitude":-33.7686459,"longitude":151.0264807},{"Name":"E002167","Address":"28 ingleton circuit , WILTON, NSW, 2571","latitude":-34.2289508,"longitude":150.6964824},{"Name":"E002169","Address":"6 Buena Vista Avenue , DENISTONE, NSW, 2114","latitude":-33.797793,"longitude":151.081754},{"Name":"E002176","Address":"2a charlotte street , MERRYLANDS, NSW, 2160","latitude":-33.8431009,"longitude":150.9756002},{"Name":"E002178","Address":"2\/33 Ardersier Drive , SINGLETON, NSW, 2330","latitude":-32.5738307,"longitude":151.1855551},{"Name":"E002183","Address":"35\/11 Bay Drive Meadowbank , MEADOWBANK, NSW, 2114","latitude":-33.8175454,"longitude":151.0901051},{"Name":"E002184","Address":"90 Lancaster Drive , POINT COOK, VIC, 3030","latitude":-37.8772738,"longitude":144.7445877},{"Name":"E002185","Address":"92 Aqueduct Street , LEPPINGTON, NSW, 2179","latitude":-33.9851233,"longitude":150.8043738763},{"Name":"E002187","Address":"17A Rudloc Road , MORLEY, WA, 6062","latitude":-31.8995567,"longitude":115.8993949},{"Name":"E002188","Address":"Twenty-Five Sunflower Drive , CLAREMONT MEADOWS, NSW, 2747","latitude":null,"longitude":null},{"Name":"E002193","Address":"11\/130 Marine Parade , COOLANGATTA, QLD, 4225","latitude":-28.1676801,"longitude":153.5403544},{"Name":"E002194","Address":"39 GLENFORD AVE , MYRTLE BANK, SA, 5064","latitude":-34.9622531,"longitude":138.6321345},{"Name":"E002195","Address":"12 Strathcairn Ave , JAN JUC, VIC, 3228","latitude":-38.340681,"longitude":144.3000709},{"Name":"E002197","Address":"15 Lamorna Avenue , BEECROFT, NSW, 2119","latitude":-33.7588863,"longitude":151.0539967},{"Name":"E002198","Address":"11 Woolacott St , COBURG, VIC, 3058","latitude":-37.7492613,"longitude":144.9638092},{"Name":"E002208","Address":"88\/2-10 Coolgardie street  , ELANORA, QLD, 4221","latitude":null,"longitude":null},{"Name":"E002209","Address":"13 McPhail Street , PIARA WATERS, WA, 6112","latitude":-32.1263692,"longitude":115.9233692},{"Name":"E002211","Address":"46 oakvale way , HALLETT COVE, SA, 5158","latitude":-35.067085,"longitude":138.5201658},{"Name":"E002216","Address":"1002\/231 miller street , NORTH SYDNEY, NSW, 2060","latitude":null,"longitude":null},{"Name":"E002217","Address":"1\/17 Liam Court , LABRADOR, QLD, 4215","latitude":-27.9394472,"longitude":153.3911339},{"Name":"E002218","Address":"61 Cochrane Avenue , MICKLEHAM, VIC, 3064","latitude":-37.5259342,"longitude":144.9139472},{"Name":"E002221","Address":"34 model farms rd , WINSTON HILLS, NSW, 2153","latitude":-33.7746293,"longitude":150.9979083},{"Name":"E002222","Address":"2104\/ 30 Glen Street , MILSONS POINT, NSW, 2061","latitude":-33.8458424,"longitude":151.2111462},{"Name":"E002223","Address":"14 Vive Avenue , CRAIGIE, WA, 6025","latitude":-31.7859879,"longitude":115.7602587},{"Name":"E002228","Address":"4 ELMBANK DRIVE , KEYSBOROUGH, VIC, 3173","latitude":-37.98951495,"longitude":145.1819987757},{"Name":"E002229","Address":"1 Orpheus Crescent  , SOUTH RIPLEY, QLD, 4306","latitude":-27.691474,"longitude":152.8140239},{"Name":"E002230","Address":"18 Knightsbridge Street , PALLARA, QLD, 4110","latitude":-27.6269243,"longitude":152.9975226},{"Name":"E002234","Address":"18 Swensen Street , GREENBANK, QLD, 4124","latitude":-27.734499,"longitude":152.9767322},{"Name":"E002235","Address":"2\/11 Shamrock Street , ABBOTSFORD, VIC, 3067","latitude":-37.810132,"longitude":145.0068672},{"Name":"E002238","Address":"6a Bowaka St , PARK HOLME, SA, 5043","latitude":-34.9862493,"longitude":138.5533597},{"Name":"E002240","Address":"Unit 601 8 Burwood Rd , BURWOOD, NSW, 2134","latitude":null,"longitude":null},{"Name":"E002244","Address":"3 Hollis Crescent , BACCHUS MARSH, VIC, 3340","latitude":-37.6759638,"longitude":144.4249552},{"Name":"E002253","Address":"20 St. Pauls Place , BLAIR ATHOL, NSW, 2560","latitude":null,"longitude":null},{"Name":"E002255","Address":"51B Quick Road , MITCHELL PARK, SA, 5043","latitude":-35.0029919,"longitude":138.560344},{"Name":"E002262","Address":"10 port jackson blvd, CLEAR ISLAND WATERS, QLD, 4226","latitude":-28.0505392,"longitude":153.4009394},{"Name":"E002265","Address":"8 Kilpa Place  , ST IVES, NSW, 2075","latitude":-33.7437903,"longitude":151.1627362},{"Name":"E002266","Address":"1a Lovely Street  , FAWKNER, VIC, 3060","latitude":-37.700447,"longitude":144.9618687},{"Name":"E002273","Address":"9 Woolgunyah Parkway , FLINDERS, NSW, 2529","latitude":-34.580444,"longitude":150.8394727},{"Name":"E002279","Address":"73 Lucas Street , GRACEMERE, QLD, 4702","latitude":-23.4593695,"longitude":150.4615542},{"Name":"E002280","Address":"23 Coppabella Crescent , BRADBURY, NSW, 2560","latitude":-34.0908718,"longitude":150.8175382},{"Name":"E002285","Address":"56 Merle St , CARINA, QLD, 4152","latitude":-27.4852471,"longitude":153.0951387},{"Name":"E002289","Address":"38 Dundas Street , ST ARNAUD, VIC, 3478","latitude":-36.6119056,"longitude":143.2567115},{"Name":"E002294","Address":"306a Beulah Road , KENSINGTON PARK, SA, 5068","latitude":-34.9172793,"longitude":138.6530321},{"Name":"E002300","Address":"63\/2 Artarmon Road , WILLOUGHBY, NSW, 2068","latitude":-33.8081948,"longitude":151.1934241},{"Name":"E002302","Address":"13A George Street, NEWTOWN, QLD, 4305","latitude":-27.6182751,"longitude":152.7784842},{"Name":"E002317","Address":"30 Parkview Drive , LANCEFIELD, VIC, 3435","latitude":-37.2505655,"longitude":144.7687064},{"Name":"E002319","Address":"207 Chatsworth Road , COORPAROO, QLD, 4151","latitude":-27.505461,"longitude":153.06244},{"Name":"E002322","Address":"2\/45 Earle Street  , CREMORNE, NSW, 2090","latitude":-33.8252476,"longitude":151.2230828},{"Name":"E002323","Address":"604, 38 Pinnacle Street  , MIRANDA, NSW, 2228","latitude":null,"longitude":null},{"Name":"E002324","Address":"5 Barclay Ave , FRANKSTON, VIC, 3199","latitude":-38.136974,"longitude":145.139789},{"Name":"E002325","Address":"67 Shepperd Avenue , COFFIN BAY, SA, 5607","latitude":-34.6236161,"longitude":135.464942},{"Name":"E002326","Address":"7-17 Hudson Way , NINGI, QLD, 4511","latitude":-27.0770196,"longitude":153.0663374},{"Name":"E002329","Address":"3 Lansell Court , CARRUM DOWNS, VIC, 3201","latitude":-38.1095011,"longitude":145.1806343},{"Name":"E002338","Address":"Unit 47, 2a Hamilton Street East , NORTH STRATHFIELD, NSW, 2137","latitude":null,"longitude":null},{"Name":"E002340","Address":"60 Taworri Crescent , WERRIBEE, VIC, 3030","latitude":-37.9017212,"longitude":144.6112335},{"Name":"E002341","Address":"62 Melinda Road , TORBANLEA, QLD, 4662","latitude":-25.3477748,"longitude":152.5691946},{"Name":"E002346","Address":"2077, 78A Belmore Street , RYDE, NSW, 2112","latitude":null,"longitude":null},{"Name":"E002349","Address":"35 beevers st footscray , FOOTSCRAY, VIC, 3011","latitude":-37.79640815,"longitude":144.9076061496},{"Name":"E002358","Address":"4 Kawana Drive , MAIDEN GULLY, VIC, 3551","latitude":-36.7545525,"longitude":144.2238524},{"Name":"E002360","Address":"6001 the lakes Drive , HOPE ISLAND, QLD, 4212","latitude":-27.8730157,"longitude":153.345563},{"Name":"E002371","Address":"1\/19 Edward Street , PARALOWIE, SA, 5108","latitude":-34.7558813,"longitude":138.6275745},{"Name":"E002374","Address":"64 Paprika Parade , MICKLEHAM, VIC, 3064","latitude":-37.5480728167,"longitude":144.8940245667},{"Name":"E002375","Address":"9 Woolgunyah Parkway , FLINDERS, NSW, 2529","latitude":-34.580444,"longitude":150.8394727},{"Name":"E002380","Address":"2a boundary street , BRONTE, NSW, 2024","latitude":-33.90872005,"longitude":151.2600603238},{"Name":"E002387","Address":"36 Antonia Cct , HALLETT COVE, SA, 5158","latitude":-35.0628186,"longitude":138.527322},{"Name":"E002388","Address":"105\/3 Herbert street  Forum west building , ST LEONARDS, NSW, 2065","latitude":null,"longitude":null},{"Name":"E002389","Address":"36-38 Buckingham Way  , ELANORA, QLD, 4221","latitude":-28.1487839,"longitude":153.4469183},{"Name":"E002391","Address":"7 Dewvale Road , O'HALLORAN HILL, SA, 5158","latitude":-35.0716067,"longitude":138.5553774},{"Name":"E002393","Address":"135 Browns Road , AUSTRAL, NSW, 2179","latitude":-33.9512106,"longitude":150.8167136},{"Name":"E002394","Address":"70\/155 Missenden Rd , Newtown , NEWTOWN, NSW, 2042","latitude":-33.8933616,"longitude":151.183477},{"Name":"E002397","Address":"84 eastern road , WARRAWEE, NSW, 2074","latitude":null,"longitude":null},{"Name":"E002406","Address":"10 Phoebe St Nirimba 4551 , KULUIN, QLD, 4558","latitude":null,"longitude":null},{"Name":"E002414","Address":"21 Linford Place, BEAUMONT HILLS, NSW, 2155","latitude":-33.7024803,"longitude":150.9483444},{"Name":"E002418","Address":"21 Lester Road , GREYSTANES, NSW, 2145","latitude":-33.8259456,"longitude":150.9516647},{"Name":"E002422","Address":"7 Taylor Street , WEST PENNANT HILLS, NSW, 2125","latitude":-33.752091,"longitude":151.025909},{"Name":"E002425","Address":"11\/131 McAuley Parade , PACIFIC PINES, QLD, 4211","latitude":-27.9466299,"longitude":153.304313},{"Name":"E002428","Address":"44 Majorca Road  , HACKHAM WEST, SA, 5163","latitude":-35.1412448,"longitude":138.5137711},{"Name":"E002432","Address":"10\/17 Tormore Road , BORONIA, VIC, 3155","latitude":-37.8576207,"longitude":145.2788625},{"Name":"E002436","Address":"8 Vista Court 8 Vista Court, CAPALABA, QLD, 4157","latitude":null,"longitude":null},{"Name":"E002437","Address":"15 Longreach Road , ARMSTRONG CREEK, VIC, 3217","latitude":-38.2320431,"longitude":144.3737969},{"Name":"E002441","Address":"1502\/113 Grand Boulevard , JOONDALUP, WA, 6027","latitude":null,"longitude":null},{"Name":"E002442","Address":"38 Fletcher St , HAWTHORN EAST, VIC, 3123","latitude":-37.8253579,"longitude":145.0458478},{"Name":"E002445","Address":"U14 2 Murray Street , LANE COVE NORTH, NSW, 2066","latitude":null,"longitude":null},{"Name":"E002457","Address":"65 Johnson Road 65 Johnson Road, ONE TREE HILL, SA, 5114","latitude":null,"longitude":null},{"Name":"E002467","Address":"1 Rotherwood Avenue , ASQUITH, NSW, 2077","latitude":-33.6811676,"longitude":151.1093366},{"Name":"E002470","Address":"14\/41 Murarrie Road , MURARRIE, QLD, 4172","latitude":-27.4646653,"longitude":153.1071492},{"Name":"E002471","Address":"22 Breffna Street  , PRESTON, VIC, 3072","latitude":-37.7480322,"longitude":145.013794},{"Name":"E002474","Address":"24 Coneyhurst Crescent , CARINDALE, QLD, 4152","latitude":null,"longitude":null},{"Name":"E002476","Address":"10 Ashton Avenue  , EARLWOOD, NSW, 2206","latitude":-33.9175048,"longitude":151.1263639},{"Name":"E002478","Address":"182 Morison Road  , CLYDE, VIC, 3978","latitude":-38.1298197,"longitude":145.3157279},{"Name":"E002479","Address":"8 Sandpiper Avenue , NORTH LAKES, QLD, 4509","latitude":-27.2219832,"longitude":153.0187758},{"Name":"E002483","Address":"7 Burrell Cr , BAULKHAM HILLS, NSW, 2153","latitude":-33.7604684,"longitude":150.9845254},{"Name":"E002485","Address":"81a antoine Street , RYDALMERE, NSW, 2116","latitude":-33.8170479,"longitude":151.0453652},{"Name":"E002490","Address":"1 Carlisle Street , CAMDEN PARK, SA, 5038","latitude":-34.9686179,"longitude":138.5384887},{"Name":"E002494","Address":"2\/23 Card Crescent , EAST MAITLAND, NSW, 2323","latitude":-32.7443176,"longitude":151.5956913},{"Name":"E002496","Address":"12 ORBIT STREET , GREGORY HILLS, NSW, 2557","latitude":-34.0352488,"longitude":150.7785132},{"Name":"E002498","Address":"54 Duke St , RICHMOND, VIC, 3121","latitude":-37.8224462,"longitude":145.0040225},{"Name":"E002499","Address":"2 Wilson Avenue , MORPHETT VALE, SA, 5162","latitude":-35.1062954,"longitude":138.5232226},{"Name":"E002502","Address":"5-11 Kensington Place , TEMPLESTOWE, VIC, 3106","latitude":-37.7697879,"longitude":145.1622941},{"Name":"E002505","Address":"5 Freeling Pl, OXENFORD, QLD, 4210","latitude":-27.9236964,"longitude":153.3059585},{"Name":"E002506","Address":"3\/49 Lyons Road , DRUMMOYNE, NSW, 2047","latitude":-33.8518019,"longitude":151.1534073},{"Name":"E002507","Address":"18 wigmore street , CAMERON PARK, NSW, 2285","latitude":-32.9110926,"longitude":151.6049954},{"Name":"E002508","Address":"4\/32 Selbourne avenue , ROSTREVOR, SA, 5073","latitude":-34.9003921,"longitude":138.6835829},{"Name":"E002513","Address":"Unit 6\/33-35 Bayview Avenue , CLAYTON, VIC, 3168","latitude":null,"longitude":null},{"Name":"E002520","Address":"12\/11 Bellevue Parade , HURSTVILLE, NSW, 2220","latitude":-33.9692103,"longitude":151.108329},{"Name":"E002523","Address":"11 Curlew Way  , PEREGIAN SPRINGS, QLD, 4573","latitude":-26.4980467,"longitude":153.076847},{"Name":"E002524","Address":"6 Pimpala Street , WURTULLA, QLD, 4575","latitude":-26.7617929,"longitude":153.1223176},{"Name":"E002525","Address":"89 narrabeen park parade , MONA VALE, NSW, 2103","latitude":-33.6881206,"longitude":151.308269},{"Name":"E002526","Address":"20 Wentworth Street  , LEICHHARDT, QLD, 4305","latitude":-27.6206662,"longitude":152.730383},{"Name":"E002529","Address":"55 Rose Street , CROYDON PARK, NSW, 2133","latitude":-33.8938792,"longitude":151.102112},{"Name":"E002532","Address":"1010\/4 Uhrig Rd , LIDCOMBE, NSW, 2141","latitude":-33.850172,"longitude":151.060624},{"Name":"E002534","Address":"19 Rayleigh Street , WULGURU, QLD, 4811","latitude":-19.3222744,"longitude":146.8092728},{"Name":"E002535","Address":"1 Morgan Street , BOTANY, NSW, 2019","latitude":-33.9449851,"longitude":151.2060545},{"Name":"E002536","Address":"5 Kingview Place , MERNDA, VIC, 3754","latitude":-37.600856,"longitude":145.0650588},{"Name":"E002538","Address":"38 Wedmore Crescent , SUNBURY, VIC, 3429","latitude":-37.5637331,"longitude":144.6951401},{"Name":"E002543","Address":"37 Illabo Street  , QUAKERS HILL, NSW, 2763","latitude":-33.7379794,"longitude":150.8941516},{"Name":"E002545","Address":"46 Ashmore Avenue , CANNING VALE, WA, 6155","latitude":-32.0977124,"longitude":115.9127741},{"Name":"E002547","Address":"418b\/118 Bowden Street , MEADOWBANK, NSW, 2114","latitude":null,"longitude":null},{"Name":"E002552","Address":"75A Barron Road , BIRKDALE, QLD, 4159","latitude":-27.508355,"longitude":153.2145652},{"Name":"E002555","Address":"4 Lake Fortesque Avenue , GREENWITH, SA, 5125","latitude":-34.7664809,"longitude":138.7146341},{"Name":"E002556","Address":"16\/28-30 Cavill Street , FRESHWATER, NSW, 2096","latitude":null,"longitude":null},{"Name":"E002558","Address":"2011\/25 Connor st  , FORTITUDE VALLEY, QLD, 4006","latitude":-27.4568652,"longitude":153.0380489},{"Name":"E002561","Address":"25 Pembroke road , MARSFIELD, NSW, 2122","latitude":-33.7728091,"longitude":151.0984159},{"Name":"E002562","Address":"8 Australia St , HURSTVILLE, NSW, 2220","latitude":-33.9738522,"longitude":151.1017241},{"Name":"E002563","Address":"3 park st , CAMPSIE, NSW, 2194","latitude":-33.910148,"longitude":151.1069801},{"Name":"E002565","Address":"68 Genevieve Road , BULLABURRA, NSW, 2784","latitude":-33.7319758,"longitude":150.4108589956},{"Name":"E002569","Address":"5 Gibbs cres Catherine field , CATHERINE FIELD, NSW, 2557","latitude":-34.0120933,"longitude":150.7547328},{"Name":"E002571","Address":"3 Nadia Court , WHEELERS HILL, VIC, 3150","latitude":-37.9166488,"longitude":145.1886716},{"Name":"E002573","Address":"Unit 7, 25 Buckingham Place , EIGHT MILE PLAINS, QLD, 4113","latitude":null,"longitude":null},{"Name":"E002574","Address":"U 14  83 SHERWOOD RD , TOOWONG, QLD, 4066","latitude":null,"longitude":null},{"Name":"E002575","Address":"35 Coffs Harbour Ave , HOXTON PARK, NSW, 2171","latitude":-33.9331539,"longitude":150.8573711},{"Name":"E002585","Address":"Unit 405, 20 Hilly Street  , MORTLAKE, NSW, 2137","latitude":null,"longitude":null},{"Name":"E002589","Address":"2\/39 Birriga Road  , BELLEVUE HILL, NSW, 2023","latitude":-33.8861138,"longitude":151.259543},{"Name":"E002593","Address":"21 Thornbill Crescent , GLENMORE PARK, NSW, 2745","latitude":-33.7954312,"longitude":150.6721177},{"Name":"E002595","Address":"12 Pitman Avenue , WOODVILLE WEST, SA, 5011","latitude":-34.8816589,"longitude":138.5284037},{"Name":"E002597","Address":"1 Dallas drive 1 Dallas drive, LALOR, VIC, 3075","latitude":null,"longitude":null},{"Name":"E002598","Address":"6a water street  , WAHROONGA, NSW, 2076","latitude":-33.714857,"longitude":151.122823},{"Name":"E002600","Address":"34\/342A Marrickville Road , MARRICKVILLE, NSW, 2204","latitude":null,"longitude":null},{"Name":"E002606","Address":"Unit 4 200 Longueville Road, LANE COVE, NSW, 2066","latitude":null,"longitude":null},{"Name":"E002608","Address":"28 Titch St , FOOTSCRAY, VIC, 3011","latitude":-37.7892226,"longitude":144.8914027},{"Name":"E002610","Address":"22 Waterview Road , NORDS WHARF, NSW, 2281","latitude":-33.1348957,"longitude":151.6052382},{"Name":"E002611","Address":"Unit 7, 21 Caroline Street , WESTMEAD, NSW, 2145","latitude":null,"longitude":null},{"Name":"E002617","Address":"08 317 Handford Road , TAIGUM, QLD, 4018","latitude":-27.3502021,"longitude":153.0399065},{"Name":"E002625","Address":"32 kuta Crescent  , ALDINGA BEACH, SA, 5173","latitude":-35.2803656,"longitude":138.4599378},{"Name":"E002626","Address":"1906\/23 Batman Street , WEST MELBOURNE, VIC, 3003","latitude":-37.8103871,"longitude":144.9530295},{"Name":"E002627","Address":"12 Crofts Road , DUCKLO, QLD, 4405","latitude":null,"longitude":null},{"Name":"E002631","Address":"12 Ruddy Lane , THE PONDS, NSW, 2769","latitude":-33.7163068,"longitude":150.9121837},{"Name":"E002632","Address":"50 Manor Road 50 Manor Road , HORNSBY HEIGHTS, NSW, 2077","latitude":null,"longitude":null},{"Name":"E002635","Address":"3 Montebello Court  , MERMAID WATERS, QLD, 4218","latitude":-28.0541775,"longitude":153.4188721},{"Name":"E002637","Address":"3\/10 salisbury road  , ROSE BAY, NSW, 2029","latitude":null,"longitude":null},{"Name":"E002642","Address":"62 Melinda Road  , TORBANLEA, QLD, 4662","latitude":-25.3477748,"longitude":152.5691946},{"Name":"E002643","Address":"6 Miso Road , WYNDHAM VALE, VIC, 3024","latitude":-37.8612166,"longitude":144.6015028},{"Name":"E002645","Address":"13 Loxton Terrace , EPPING, VIC, 3076","latitude":-37.6412733,"longitude":145.0609206},{"Name":"E002646","Address":"67 Babbage Rd , ROSEVILLE CHASE, NSW, 2069","latitude":-33.777919,"longitude":151.1950493},{"Name":"E002647","Address":"1 Davis Place , GLENHAVEN, NSW, 2156","latitude":-33.7025728,"longitude":150.9949659},{"Name":"E002648","Address":"119 rupertswood road , ROOTY HILL, NSW, 2766","latitude":-33.7718907,"longitude":150.8315801},{"Name":"E002649","Address":"12a peter close , HORNSBY HEIGHTS, NSW, 2077","latitude":-33.658097,"longitude":151.106403},{"Name":"E002653","Address":"55 Crestview Drive , GLENWOOD, NSW, 2768","latitude":-33.7482052,"longitude":150.9476611},{"Name":"E002654","Address":"2\/6 Brierley Street , MOSMAN, NSW, 2088","latitude":-33.832738,"longitude":151.2308041},{"Name":"E002661","Address":"18 Goulburn Peninsula  , SYLVANIA WATERS, NSW, 2224","latitude":-34.0231235,"longitude":151.1101138},{"Name":"E002662","Address":"6 Athena Ave , ST IVES, NSW, 2075","latitude":-33.7221393,"longitude":151.1805789},{"Name":"E002664","Address":"Unit 5022 \/ 2E Porter St , RYDE, NSW, 2112","latitude":null,"longitude":null},{"Name":"E002665","Address":"5 middle park drive , POINT COOK, VIC, 3030","latitude":-37.9007145,"longitude":144.7575528},{"Name":"E002668","Address":"7 First Avenue , BOX HILL NORTH, VIC, 3129","latitude":-37.7993702,"longitude":145.1409875},{"Name":"E002669","Address":"83 Warrane Road  , NORTH WILLOUGHBY, NSW, 2068","latitude":-33.7903066,"longitude":151.2030353},{"Name":"E002670","Address":"17 Fuji Court  , MOUNT LOUISA, QLD, 4814","latitude":-19.2740888,"longitude":146.7305953},{"Name":"E002672","Address":"1208\/1 Network Place , NORTH RYDE, NSW, 2113","latitude":-33.7951613,"longitude":151.1379663},{"Name":"E002674","Address":"4 Hillcroft St , MOUNT GRAVATT EAST, QLD, 4122","latitude":-27.536863,"longitude":153.0929686},{"Name":"E002675","Address":"41 Fleetway street  , MORNINGSIDE, QLD, 4170","latitude":-27.4761032,"longitude":153.0772719},{"Name":"E002677","Address":"29 Virginius Street , PADSTOW, NSW, 2211","latitude":-33.9579134,"longitude":151.0237567},{"Name":"E002678","Address":"12 THORNTON STREET , ELIZABETH EAST, SA, 5112","latitude":-34.725364,"longitude":138.6838881},{"Name":"E002680","Address":"203\/6 Mooltan Avenue , MACQUARIE PARK, NSW, 2113","latitude":-33.7798358,"longitude":151.1129662},{"Name":"E002687","Address":"17 Tait Street , RUSSELL LEA, NSW, 2046","latitude":-33.8578773,"longitude":151.142769},{"Name":"E002688","Address":"35 Buckleys Road , WINSTON HILLS, NSW, 2153","latitude":-33.7771669,"longitude":150.9740892},{"Name":"E002690","Address":"23 Ferndell Street , THE PONDS, NSW, 2769","latitude":-33.6969572,"longitude":150.9018555},{"Name":"E002695","Address":"85 Robinson Street East Lindfield , EAST LINDFIELD, NSW, 2070","latitude":-33.7652262,"longitude":151.1841032},{"Name":"E002697","Address":"Unit 7 319 Fullarton Road , PARKSIDE, SA, 5063","latitude":null,"longitude":null},{"Name":"E002701","Address":"32 Olive Street  , ASQUITH, NSW, 2077","latitude":-33.6905521,"longitude":151.1077797},{"Name":"E002705","Address":"20 Swan Street , INVERELL, NSW, 2360","latitude":-29.7717674,"longitude":151.0992034},{"Name":"E002706","Address":"4\/4 Hunter Street , LEWISHAM, NSW, 2049","latitude":-33.8954887,"longitude":151.1494145},{"Name":"E002707","Address":"Unit 305 4 Joseph Road , FOOTSCRAY, VIC, 3011","latitude":null,"longitude":null},{"Name":"E002708","Address":"401 Galston Rd , GALSTON, NSW, 2159","latitude":-33.660655,"longitude":151.044579},{"Name":"E002710","Address":"U105\/ 180 St Johns Rd , GLEBE, NSW, 2037","latitude":null,"longitude":null},{"Name":"E002716","Address":"9 Debanne Crt , NARRE WARREN, VIC, 3805","latitude":-38.005983,"longitude":145.3035146},{"Name":"E002717","Address":"91 glenmore road , PADDINGTON, NSW, 2021","latitude":-33.8822451,"longitude":151.2260386},{"Name":"E002718","Address":"Unit 25\/1 Eldridge Cres , GARRAN, ACT, 2605","latitude":null,"longitude":null},{"Name":"E002719","Address":"59 Charles Street , LEICHHARDT, NSW, 2040","latitude":-33.8756656,"longitude":151.1524545},{"Name":"E002724","Address":"12 Marga Place  , KEYSBOROUGH, VIC, 3173","latitude":-38.0044663,"longitude":145.1473721},{"Name":"E002727","Address":"1003 88 Church Street  , PARRAMATTA, NSW, 2150","latitude":-33.8051192,"longitude":151.0059345},{"Name":"E002731","Address":"12 Setonhall Court, Sippy Downs , SIPPY DOWNS, QLD, 4556","latitude":-26.7219227,"longitude":153.0574175},{"Name":"E002732","Address":"53 Countess Street , MOSMAN, NSW, 2088","latitude":-33.821768,"longitude":151.2356275},{"Name":"E002733","Address":"9 Schafferius Court  , COLLINGWOOD PARK, QLD, 4301","latitude":-27.6222298,"longitude":152.8634731},{"Name":"E002735","Address":"10 Lemongrove Crescent , CROYDON HILLS, VIC, 3136","latitude":-37.7813383,"longitude":145.2625787004},{"Name":"E002737","Address":"5 pope street , RYDE, NSW, 2112","latitude":-33.8110054,"longitude":151.1064216},{"Name":"E002739","Address":"22 St Pauls Way , BLACKTOWN, NSW, 2148","latitude":-33.7835086,"longitude":150.892044},{"Name":"E002740","Address":"6 St Kilda Road , ST KILDA, VIC, 3182","latitude":-37.8566181,"longitude":144.9835900568},{"Name":"E002741","Address":"22 Westwood Way , BELLA VISTA, NSW, 2153","latitude":-33.7376832,"longitude":150.9555643},{"Name":"E002744","Address":"U 11 51 Kinkora Rd,  , HAWTHORN, VIC, 3122","latitude":null,"longitude":null},{"Name":"E002750","Address":"119 parkholme circuit  , AMBARVALE, NSW, 2560","latitude":null,"longitude":null},{"Name":"E002751","Address":"16 Bungonia Street  , PRESTONS, NSW, 2170","latitude":-33.9468384,"longitude":150.8529308},{"Name":"E002755","Address":"57 Capella St , COORPAROO, QLD, 4151","latitude":-27.5100642,"longitude":153.0735926},{"Name":"E002758","Address":"15 8-12 Railway Cres, JANNALI, NSW, 2226","latitude":null,"longitude":null},{"Name":"E002759","Address":"9 Stella Vista Place , GREENWICH, NSW, 2065","latitude":-33.827478,"longitude":151.1876176},{"Name":"E002760","Address":"14 Highgate Street  , STRATHFIELD, NSW, 2135","latitude":-33.8837486,"longitude":151.0862656},{"Name":"E002762","Address":"59 Robert Street  , TELOPEA, NSW, 2117","latitude":-33.7905383,"longitude":151.035002},{"Name":"E002764","Address":"4\/91 Shadforth Street , MOSMAN, NSW, 2088","latitude":-33.8330392,"longitude":151.2390176},{"Name":"E002766","Address":"106 Lennon Boulevard , POINT COOK, VIC, 3030","latitude":-37.8954887,"longitude":144.7401584},{"Name":"E002768","Address":"210\/ 59-63 Warrigal Road , HUGHESDALE, VIC, 3166","latitude":null,"longitude":null},{"Name":"E002771","Address":"Unit 47 10-14 Hazlewood Pl, EPPING, NSW, 2121","latitude":null,"longitude":null},{"Name":"E002773","Address":"6\/776 New South Head Rd , ROSE BAY, NSW, 2029","latitude":-33.8725442,"longitude":151.2613136},{"Name":"E002774","Address":"2\/8 Acklin Court  , VARSITY LAKES, QLD, 4227","latitude":-28.0898029,"longitude":153.4095341},{"Name":"E002775","Address":"13 Goulburn road  , BALDIVIS, WA, 6171","latitude":-32.3319556,"longitude":115.818297},{"Name":"E002776","Address":"12 Knutsford St , CHERMSIDE WEST, QLD, 4032","latitude":-27.3856167,"longitude":153.01679},{"Name":"E002777","Address":"25 koala place  , BLACKBUTT, NSW, 2529","latitude":-34.5703838,"longitude":150.8351172},{"Name":"E002778","Address":"7 Clarice Avenue , NORTH IPSWICH, QLD, 4305","latitude":-27.5793939,"longitude":152.7579622},{"Name":"E002779","Address":"11 Eliza Street , COBBITTY, NSW, 2570","latitude":-34.0210701,"longitude":150.7093735},{"Name":"E002781","Address":"2 Frederick Street 2 Frederick Street, MIRANDA, NSW, 2228","latitude":null,"longitude":null},{"Name":"E002783","Address":"Unit 2 246A The Grand Parade , RAMSGATE BEACH, NSW, 2217","latitude":null,"longitude":null},{"Name":"E002784","Address":"2 Dunoon Street , BEROWRA HEIGHTS, NSW, 2082","latitude":-33.6177856,"longitude":151.1326904},{"Name":"E002785","Address":"28 Cassinia Avenue , MARSDEN PARK, NSW, 2765","latitude":-33.6971813,"longitude":150.8129107},{"Name":"E002786","Address":"27 Maplehurst Avenue , HOPPERS CROSSING, VIC, 3029","latitude":-37.8674205,"longitude":144.7084741},{"Name":"E002790","Address":"21 Almandin St , Gables, NSW, 2765","latitude":-33.6172444,"longitude":150.9114271},{"Name":"E002791","Address":"4 Ryrie St , NORTH RYDE, NSW, 2113","latitude":-33.796678,"longitude":151.125321},{"Name":"E002794","Address":"102\/43 Shoreline Drive , RHODES, NSW, 2138","latitude":-33.828505,"longitude":151.083956},{"Name":"E002795","Address":"409 Bingham Road Booral 4655 , BOORAL, QLD, 4655","latitude":null,"longitude":null},{"Name":"E002797","Address":"12\/39 Vernon Tce Goldsborough Place, BONDI, NSW, 2026","latitude":null,"longitude":null},{"Name":"E002798","Address":"24\/60-64 Essington St , WENTWORTHVILLE, NSW, 2145","latitude":null,"longitude":null},{"Name":"E002799","Address":"8 Broadaxe street , SPRING MOUNTAIN, QLD, 4300","latitude":-27.7008749,"longitude":152.9088843},{"Name":"E002800","Address":"91B Woodward Street , EDGE HILL, QLD, 4870","latitude":-16.9015822,"longitude":145.7457673},{"Name":"E002805","Address":"Unit 4  11 Bidjigal Road, ARNCLIFFE  NSW  2205 , ARNCLIFFE, NSW, 2205","latitude":null,"longitude":null},{"Name":"E002806","Address":"23 Cedarwood Crescent , BERWICK, VIC, 3806","latitude":-38.0662446,"longitude":145.3376973},{"Name":"E002807","Address":"16 Peter Mills Drive , GILSTON, QLD, 4211","latitude":-28.0234793,"longitude":153.3162749},{"Name":"E002810","Address":"88 Wireless Drive , Aintree, VIC, 3336","latitude":-37.7193762,"longitude":144.664563},{"Name":"E002811","Address":"9 Ephinstone St , WEST FOOTSCRAY, VIC, 3012","latitude":null,"longitude":null},{"Name":"E002813","Address":"3\/38-40 Daintrey Street , FAIRLIGHT, NSW, 2094","latitude":null,"longitude":null},{"Name":"E002814","Address":"unit 48\/39 dorcas street , SOUTH MELBOURNE, VIC, 3205","latitude":null,"longitude":null},{"Name":"E002815","Address":"4\/17 Darling ST, Bronte NSW , BRONTE, NSW, 2024","latitude":-33.9001236,"longitude":151.2664599},{"Name":"E002817","Address":"31 Heather Grove , BRIAR HILL, VIC, 3088","latitude":-37.7053226,"longitude":145.123325},{"Name":"E002821","Address":"3\/351 Sir Donald Bradman Drive , BROOKLYN PARK, SA, 5032","latitude":-34.9327078,"longitude":138.5524237},{"Name":"E002823","Address":"U510\/31-37 Hassall Street , PARRAMATTA, NSW, 2150","latitude":null,"longitude":null},{"Name":"E002824","Address":"3 Banksia Place , ARCADIA, NSW, 2159","latitude":-33.6076968,"longitude":151.0473548},{"Name":"E002825","Address":"5 Keast Court 5 Keast Court, KEPNOCK, QLD, 4670","latitude":null,"longitude":null},{"Name":"E002826","Address":"134 Sixth Ave 134 Sixth Ave, ROYSTON PARK, SA, 5070","latitude":null,"longitude":null},{"Name":"E002827","Address":"2\/16 Kristy street , MARSDEN, QLD, 4132","latitude":-27.6705186,"longitude":153.0901362},{"Name":"E002828","Address":"9\/20 Claudia Street , BURPENGARY, QLD, 4505","latitude":-27.1675815,"longitude":152.9638165},{"Name":"E002829","Address":"39A queensborough avenue , HILLCREST, SA, 5086","latitude":-34.8653131,"longitude":138.6378051},{"Name":"E002830","Address":"Building 8 304 the village place Kirrawee 2232 , PENSHURST, NSW, 2222","latitude":null,"longitude":null},{"Name":"E002831","Address":"117\/34 Railway Crescent  , JANNALI, NSW, 2226","latitude":-34.0166285,"longitude":151.0648586},{"Name":"E002832","Address":"Unit 2\/41 Brighton Boulevard Bondi Beach 2026 , BONDI BEACH, NSW, 2026","latitude":null,"longitude":null},{"Name":"E002834","Address":"25 Rysdyk Parade , WAMBERAL, NSW, 2260","latitude":-33.4294453,"longitude":151.4387168},{"Name":"E002835","Address":"9 Christle Street  9 Christle Street, GREEN POINT, NSW, 2251","latitude":null,"longitude":null},{"Name":"E002836","Address":"47 McMasters Road , WOY WOY, NSW, 2256","latitude":-33.500442,"longitude":151.3209765},{"Name":"E002837","Address":"13940 Morton Street, WOLLSTONECRAFT, NSW, 2065","latitude":-33.8344372,"longitude":151.2008023},{"Name":"E002838","Address":"6 Grandstand Circuit , ST CLAIR, SA, 5011","latitude":-34.8656616,"longitude":138.5318205},{"Name":"E002839","Address":"20911 37D Harbour Road  , HAMILTON, QLD, 4007","latitude":null,"longitude":null},{"Name":"E002840","Address":"202a Richmond road blacktown  , BLACKTOWN, NSW, 2148","latitude":-33.7621482,"longitude":150.8998316},{"Name":"E002843","Address":"9 Rupari Place  , BELROSE, NSW, 2085","latitude":-33.7361015,"longitude":151.2030936},{"Name":"E002844","Address":"Unit 3, 24 Lincoln Steet , KENSINGTON GARDENS, SA, 5068","latitude":null,"longitude":null},{"Name":"E002846","Address":"18A Clifton Street , BLAIR ATHOL, SA, 5084","latitude":-34.865746,"longitude":138.5936701},{"Name":"E002847","Address":"21\/45-47 Aurelia Street , TOONGABBIE, NSW, 2146","latitude":null,"longitude":null},{"Name":"E002848","Address":"2 ROSAMOND STREET , HORNSBY, NSW, 2077","latitude":-33.6868326,"longitude":151.0952142},{"Name":"E002850","Address":"17 Pearse Street , COTTESLOE, WA, 6011","latitude":-32.0020378,"longitude":115.7559745},{"Name":"E002851","Address":"Lot 3 Stoney Creek Court , NARBETHONG, VIC, 3778","latitude":-37.5434812,"longitude":145.6565695},{"Name":"E002855","Address":"14 Wanalta Road , CARNEGIE, VIC, 3163","latitude":-37.8874364,"longitude":145.0468226},{"Name":"E002856","Address":"3 The Atrium , SOUTH MORANG, VIC, 3752","latitude":-37.6165158,"longitude":145.069462978},{"Name":"E002857","Address":"27 Epping Drive , FRENCHS FOREST, NSW, 2086","latitude":-33.7465732,"longitude":151.2282032},{"Name":"E002858","Address":"103\/74 Mitchell Rd , ALEXANDRIA, NSW, 2015","latitude":-33.8991283,"longitude":151.1947792},{"Name":"E002860","Address":"7 terry street  , GREENACRE, NSW, 2190","latitude":-33.8913339,"longitude":151.0652302},{"Name":"E002861","Address":"14 Deane Ave , NOARLUNGA DOWNS, SA, 5168","latitude":-35.1497902,"longitude":138.4910588},{"Name":"E002862","Address":"3 Rye Grove , HOCKING, WA, 6065","latitude":-31.7662956,"longitude":115.8166774},{"Name":"E002863","Address":"U505 7 Half Street , WENTWORTH POINT, NSW, 2127","latitude":null,"longitude":null},{"Name":"E002864","Address":"13 Karabil Close , SCORESBY, VIC, 3179","latitude":-37.89814225,"longitude":145.2255988462},{"Name":"E002865","Address":"6\/29 Forsyth Street , KINGSFORD, NSW, 2032","latitude":-33.9212699,"longitude":151.2300891},{"Name":"E002866","Address":"8 Dundas avenue  , SUNBURY, VIC, 3429","latitude":-37.575679,"longitude":144.7070173},{"Name":"E002873","Address":"9\/37 Warwick Street  , PENRITH, NSW, 2750","latitude":-33.7600518,"longitude":150.6979867},{"Name":"E002875","Address":"18 teatree court , GOWRIE JUNCTION, QLD, 4352","latitude":null,"longitude":null},{"Name":"E002876","Address":"43 Myrna Road , STRATHFIELD, NSW, 2135","latitude":-33.8817074,"longitude":151.0753006},{"Name":"E002880","Address":"8 Glenelg Place , BEECROFT, NSW, 2119","latitude":-33.7532289,"longitude":151.0708773},{"Name":"E002883","Address":"Unit 2, 5 Anderson Street , NEUTRAL BAY, NSW, 2089","latitude":null,"longitude":null},{"Name":"E002884","Address":"610 King  Street , ERSKINEVILLE, NSW, 2043","latitude":-33.9045623,"longitude":151.1806023497},{"Name":"E002886","Address":"31 Myrtle St , PROSPECT, NSW, 2148","latitude":-33.7947398,"longitude":150.9122265},{"Name":"E002887","Address":"2\/122 Bellevue Road , BELLEVUE HILL, NSW, 2023","latitude":-33.8858334,"longitude":151.256534},{"Name":"E002888","Address":"3\/183 Balmain Road , LEICHHARDT, NSW, 2040","latitude":-33.8755582,"longitude":151.1609759},{"Name":"E002889","Address":"11A Beatrice Street , LIDCOMBE, NSW, 2141","latitude":-33.8699202,"longitude":151.0401331},{"Name":"E002890","Address":"60 Dickson Av , WEST RYDE, NSW, 2114","latitude":-33.805921,"longitude":151.081647},{"Name":"E002891","Address":"115 Lilli Pilli Point Road , LILLI PILLI, NSW, 2229","latitude":-34.0639438,"longitude":151.1194499},{"Name":"E002893","Address":"35 Loretto Way , HAMLYN TERRACE, NSW, 2259","latitude":-33.2623923,"longitude":151.4659398},{"Name":"E002894","Address":"25 mills avenue lightsview , Lightsview, SA, 5085","latitude":-34.8643192,"longitude":138.6211928},{"Name":"E002897","Address":"42 Elandi Street  , CURLEWIS, VIC, 3222","latitude":-38.1650497,"longitude":144.54759},{"Name":"E002899","Address":"34 Cart Road , Fraser Rise, VIC, 3336","latitude":-37.7031582,"longitude":144.7150824},{"Name":"E002900","Address":"4 Villa Court , ASHFIELD, QLD, 4670","latitude":-24.8742377,"longitude":152.3905924},{"Name":"E002901","Address":"Unit 802  18 Lilydale Street , MARRICKVILLE, NSW, 2204","latitude":null,"longitude":null},{"Name":"E002902","Address":"111 dampier drive , GOLDEN BAY, WA, 6174","latitude":-32.4236959,"longitude":115.7651484},{"Name":"E002903","Address":"22 Gray Street , TRANMERE, SA, 5073","latitude":-34.8981863,"longitude":138.6612696},{"Name":"E002904","Address":"6\/1 Pitt Street , PARADISE, SA, 5075","latitude":-34.8739696,"longitude":138.6635652},{"Name":"E002905","Address":"170 Brandon Rd, 4113 Runcorn, RUNCORN, QLD, 4113","latitude":-27.6038092,"longitude":153.0680017},{"Name":"E002908","Address":"18 Daimler Avenue , KEILOR DOWNS, VIC, 3038","latitude":-37.7249807,"longitude":144.7987231},{"Name":"E002909","Address":"229 Barkly Street , BRUNSWICK, VIC, 3056","latitude":-37.7764507123,"longitude":144.9651321688},{"Name":"E002910","Address":"2 Mawson street  , MICKLEHAM, VIC, 3064","latitude":-37.5407186,"longitude":144.890814},{"Name":"E002911","Address":"26 Wemyss Street, Enmore 2042 , SYDNEY, NSW, 2000","latitude":null,"longitude":null},{"Name":"E002912","Address":"25 Papara Street  , PACIFIC PINES, QLD, 4211","latitude":-27.9364216,"longitude":153.3239566},{"Name":"E002913","Address":"2 Mowbray Close , CASTLE HILL, NSW, 2154","latitude":-33.7132687,"longitude":151.0238012},{"Name":"E002914","Address":"20 Olivevale Street , ORMEAU, QLD, 4208","latitude":-27.7805734,"longitude":153.2688625},{"Name":"E002915","Address":"12 The Walk , CAMDEN PARK, NSW, 2570","latitude":-34.0960489,"longitude":150.7032334},{"Name":"E002916","Address":"1004\/28 Cowper Street , GRANVILLE, NSW, 2142","latitude":-33.8318068,"longitude":151.0128813},{"Name":"E002917","Address":"31a Alfred Road , NARRAWEENA, NSW, 2099","latitude":-33.7561017,"longitude":151.2729871},{"Name":"E002918","Address":"10 cawdell drive , ALBION PARK, NSW, 2527","latitude":-34.5723003,"longitude":150.7767512},{"Name":"E002919","Address":"86B Ross Rd , HECTORVILLE, SA, 5073","latitude":-34.8931372,"longitude":138.669045},{"Name":"E002920","Address":"65 Brighton Drive , BELLA VISTA, NSW, 2153","latitude":-33.7315201,"longitude":150.954673},{"Name":"E002922","Address":"36 carolina park road , AVOCA BEACH, NSW, 2251","latitude":-33.475823,"longitude":151.4272843},{"Name":"E002923","Address":"61\/3-13 Bundarra Ave South , WAHROONGA, NSW, 2076","latitude":null,"longitude":null},{"Name":"E002925","Address":"30 boomerang road , CROYDON PARK, SA, 5008","latitude":-34.8803625,"longitude":138.5628777},{"Name":"E002927","Address":"13 Bate Avenue , ALLAMBIE HEIGHTS, NSW, 2100","latitude":-33.7769684,"longitude":151.2601525},{"Name":"E002928","Address":"18 mermaid crescent , GLENFIELD, NSW, 2167","latitude":-33.95974845,"longitude":150.8867933558},{"Name":"E002929","Address":"54 Payten St , KOGARAH BAY, NSW, 2217","latitude":-33.9797531,"longitude":151.1213717},{"Name":"E002930","Address":"Unit 13\/1 Mandin St , ALEXANDRA HEADLAND, QLD, 4572","latitude":null,"longitude":null},{"Name":"E002931","Address":"337 Cabramatta Road West , CABRAMATTA WEST, NSW, 2166","latitude":-33.8992359,"longitude":150.9176968},{"Name":"E002932","Address":"1 Salisbury Ave , MORPHETT VALE, SA, 5162","latitude":-35.12639125,"longitude":138.5164763679},{"Name":"E002934","Address":"2\/10 Atkinson Street , CHADSTONE, VIC, 3148","latitude":-37.8848788,"longitude":145.0967451},{"Name":"E002935","Address":"1541A Pittwater Road , NORTH NARRABEEN, NSW, 2101","latitude":-33.7049501,"longitude":151.2974369},{"Name":"E002939","Address":"1003\/425 Bourke Street  , SURRY HILLS, NSW, 2010","latitude":null,"longitude":null},{"Name":"E002941","Address":"16\/61-67 Reynolds Avenue , BANKSTOWN, NSW, 2200","latitude":null,"longitude":null},{"Name":"E002944","Address":"2\/6-8 Waterloo Street , NARRABEEN, NSW, 2101","latitude":-33.7137402,"longitude":151.3002334},{"Name":"E002946","Address":"1B \/ 77 Macleay Steet , POTTS POINT, NSW, 2011","latitude":null,"longitude":null}]